  [
    {
      "name": "Wally's",
      "location": {
        "address": "447 N. Canon Drive",
        "lat": 34.07147461362585,
        "lng": -118.40178159017727,
        "postalCode": "90210",
        "cc": "US",
        "city": "Beverly Hills",
        "state": "CA"
      }
    },
    {
      "name": "Los Angeles School of Gymnastics",
      "location": {
        "address": "8450 Higuera St",
        "lat": 34.02201999205596,
        "lng": -118.3794559484001,
        "postalCode": "90232",
        "cc": "US",
        "city": "Culver City",
        "state": "CA"
      }
    },
    {
      "name": "Griffith Park",
      "location": {
        "address": "Griffith Park Dr",
        "crossStreet": "Mount Hollywood Dr",
        "lat": 34.13511696959287,
        "lng": -118.30496549606323,
        "postalCode": "90027",
        "cc": "US",
        "city": "Los Angeles",
        "state": "CA"
      }
    },
    {
      "name": "Santa Monica State Beach",
      "location": {
        "address": "1432 Palisades Beach Rd",
        "crossStreet": "at Colorado Ave",
        "lat": 34.01201556367278,
        "lng": -118.49803735932294,
        "postalCode": "90401",
        "cc": "US",
        "city": "Santa Monica",
        "state": "CA"
      }
    },
    {
      "name": "J. Paul Getty Museum",
      "location": {
        "address": "1200 Getty Center Dr",
        "lat": 34.07760491989963,
        "lng": -118.47459381751833,
        "postalCode": "90049",
        "cc": "US",
        "city": "Los Angeles",
        "state": "CA"
      }
    },
    {
      "name": "The Wizarding World of Harry Potter",
      "location": {
        "address": "100 Universal City Plz",
        "crossStreet": "100 Universal City Plz",
        "lat": 34.138443,
        "lng": -118.354056,
        "postalCode": "91608",
        "cc": "US",
        "city": "Universal City",
        "state": "CA"
      }
    },
    {
      "name": "Los Angeles County Museum of Art (LACMA)",
      "location": {
        "address": "5905 Wilshire Blvd",
        "crossStreet": "at S Ogden Dr",
        "lat": 34.063297970107506,
        "lng": -118.35865603231377,
        "postalCode": "90036",
        "cc": "US",
        "city": "Los Angeles",
        "state": "CA"
      }
    },
    {
      "name": "Venice Canals",
      "location": {
        "address": "Dell Ave",
        "crossStreet": "at Howland Canal",
        "lat": 33.98344032489223,
        "lng": -118.4663140359173,
        "postalCode": "90291",
        "cc": "US",
        "city": "Venice",
        "state": "CA"
      }
    },
    {
      "name": "Salt & Straw",
      "location": {
        "address": "1357 Abbot Kinney Blvd",
        "crossStreet": "at California Ave",
        "lat": 33.99076278711894,
        "lng": -118.46601398122318,
        "postalCode": "90291",
        "cc": "US",
        "city": "Los Angeles",
        "state": "CA"
      }
    },
    {
      "name": "South Santa Monica Beach",
      "location": {
        "lat": 34.00039170087885,
        "lng": -118.48630220629683,
        "postalCode": "90405",
        "cc": "US",
        "city": "Santa Monica",
        "state": "CA"
      }
    },
    {
      "name": "Annenberg Space for Photography",
      "location": {
        "address": "2000 Avenue of the Stars Ste 10",
        "crossStreet": "at Olympic Blvd",
        "lat": 34.05896101513455,
        "lng": -118.41379727524347,
        "postalCode": "90067",
        "cc": "US",
        "city": "Los Angeles",
        "state": "CA"
      }
    },
    {
      "name": "Mr. Speedy Plumbing & Rooter Inc.",
      "location": {
        "address": "418 Molino St",
        "lat": 34.042538,
        "lng": -118.233864,
        "postalCode": "90013",
        "cc": "US",
        "city": "Los Angeles",
        "state": "CA"
      }
    },
    {
      "name": "Pantages Theatre",
      "location": {
        "address": "6233 Hollywood Blvd",
        "crossStreet": "btwn Vine & Argyle Ave",
        "lat": 34.10237757810194,
        "lng": -118.32578826146543,
        "postalCode": "90028",
        "cc": "US",
        "city": "Los Angeles",
        "state": "CA"
      }
    },
    {
      "name": "Hauser Wirth & Schimmel",
      "location": {
        "address": "901 E 3rd St",
        "lat": 34.04609454414777,
        "lng": -118.23480071162271,
        "postalCode": "90013",
        "cc": "US",
        "city": "Los Angeles",
        "state": "CA"
      }
    },
    {
      "name": "Universal Studios Hollywood Globe and Fountain",
      "location": {
        "address": "100 Universal Plaza",
        "crossStreet": "at Universal Studios Hollywood",
        "lat": 34.136557530424604,
        "lng": -118.35588455200195,
        "postalCode": "91608",
        "cc": "US",
        "city": "Los Angeles",
        "state": "CA"
      }
    },
    {
      "name": "Universal Studios Hollywood",
      "location": {
        "address": "100 Universal City Plz",
        "crossStreet": "btwn Barham & Lankershim Blvd",
        "lat": 34.136999,
        "lng": -118.355473,
        "postalCode": "91608",
        "cc": "US",
        "city": "Los Angeles",
        "state": "CA"
      }
    },
    {
      "name": "Blue Bottle Coffee",
      "location": {
        "address": "10250 Santa Monica Blvd",
        "lat": 34.05931000661294,
        "lng": -118.41979747007443,
        "postalCode": "90067",
        "cc": "US",
        "city": "Los Angeles",
        "state": "CA"
      }
    },
    {
      "name": "Walt Disney Concert Hall",
      "location": {
        "address": "111 S Grand Ave",
        "crossStreet": "btwn 1st & 2nd St",
        "lat": 34.05551083926236,
        "lng": -118.24928414738585,
        "postalCode": "90012",
        "cc": "US",
        "city": "Los Angeles",
        "state": "CA"
      }
    },
    {
      "name": "Beverly Wilshire Hotel (A Four Seasons Hotel) (Beverly Wilshire Hotel)",
      "location": {
        "address": "9500 Wilshire Blvd",
        "crossStreet": "at S Rodeo Dr",
        "lat": 34.06640234731336,
        "lng": -118.4006908257257,
        "postalCode": "90212",
        "cc": "US",
        "city": "Beverly Hills",
        "state": "CA"
      }
    },
    {
      "name": "Topanga State Park",
      "location": {
        "address": "20800 Entrada Rd",
        "lat": 34.09324617541828,
        "lng": -118.5863935947418,
        "cc": "US",
        "city": "Topanga",
        "state": "CA"
      }
    },
    {
      "name": "Ocean Park Beach",
      "location": {
        "address": "Barnard Way",
        "crossStreet": "Ocean Park Blvd",
        "lat": 34.001087023521826,
        "lng": -118.48767757415771,
        "postalCode": "90265",
        "cc": "US",
        "city": "Santa Monica",
        "state": "CA"
      }
    },
    {
      "name": "YouTube Space LA",
      "location": {
        "address": "12422 Bluff Creek Dr",
        "lat": 33.97686510914743,
        "lng": -118.40694021342593,
        "postalCode": "90094",
        "cc": "US",
        "city": "Los Angeles",
        "state": "CA"
      }
    },
    {
      "name": "Silver Lake Wine",
      "location": {
        "address": "2395 Glendale Blvd",
        "crossStreet": "at Brier Ave",
        "lat": 34.10000284276069,
        "lng": -118.25931500271781,
        "postalCode": "90039",
        "cc": "US",
        "city": "Los Angeles",
        "state": "CA"
      }
    },
    {
      "name": "The Last Bookstore",
      "location": {
        "address": "453 S Spring St",
        "crossStreet": "at 5th St",
        "lat": 34.04761976195177,
        "lng": -118.24985178060163,
        "postalCode": "90013",
        "cc": "US",
        "city": "Los Angeles",
        "state": "CA"
      }
    },
    {
      "name": "Ocean View Park",
      "location": {
        "address": "2701 Barnard Way",
        "crossStreet": "btw Ocean Park Blvd & Ashland Ave",
        "lat": 33.9985625160073,
        "lng": -118.48342246177042,
        "postalCode": "90407",
        "cc": "US",
        "city": "Santa Monica",
        "state": "CA"
      }
    },
    {
      "name": "Cliffs of Id",
      "location": {
        "address": "2537 S. Fairfax",
        "crossStreet": "W. Adams",
        "lat": 34.03295660704845,
        "lng": -118.37094255970706,
        "postalCode": "90232",
        "cc": "US",
        "city": "Culver City",
        "state": "CA"
      }
    },
    {
      "name": "The Broad",
      "location": {
        "address": "221 S Grand Ave",
        "crossStreet": "at 2nd St",
        "lat": 34.05447353318002,
        "lng": -118.25005141068853,
        "postalCode": "90012",
        "cc": "US",
        "neighborhood": "Bunker Hill",
        "city": "Los Angeles",
        "state": "CA"
      }
    },
    {
      "name": "Equinox Hollywood",
      "location": {
        "address": "1550 N. Vine Street",
        "crossStreet": "at Selma Ave",
        "lat": 34.099439634632844,
        "lng": -118.32662680916236,
        "postalCode": "90028",
        "cc": "US",
        "city": "Los Angeles",
        "state": "CA"
      }
    },
    {
      "name": "Hermosa Beach - The Strand",
      "location": {
        "address": "The Strand",
        "crossStreet": "at Pier Ave",
        "lat": 33.861906,
        "lng": -118.40169,
        "postalCode": "90254",
        "cc": "US",
        "city": "Los Angeles",
        "state": "CA"
      }
    },
    {
      "name": "Urban Light at LACMA",
      "location": {
        "address": "5905 Wilshire Blvd",
        "lat": 34.063027,
        "lng": -118.359175,
        "postalCode": "90036",
        "cc": "US",
        "city": "Los Angeles",
        "state": "CA"
      }
    }
  ]